{
  "places": [
    {
      "lat": 37.441883,
      "lng": -122.143021
    },
    {
      "lat": 39.9777792,
      "lng": -74.9617152
    },
    {
      "lat": 38.722252,
      "lng": -9.139337
    },
    {
      "lat": 51.507351,
      "lng": -0.127758
    },
    {
      "name": "Nepal",
      "lat": 49.386380,
      "lng": 7.458520
    },
    {
      "name": "Tokyo",
      "lat": 35.6684415,
      "lng": 139.6007849
    },
    {
      "name": "Penang",
      "lat": 5.416393,
      "lng": 100.3326809
    },
    {
      "name": "Kuala Lumpur",
      "lat": 3.139003,
      "lng": 101.686852
    },
    {
      "name": "Singapore",
      "lat": 1.352083,
      "lng": 103.819839
    },
    {
      "name": "Siem Riep",
      "lat": 13.35433,
      "lng": 103.77549
    },
    {
      "name": "Chiang Mai",
      "lat": 18.706064,
      "lng": 98.981712
    },
    {
      "name": "Kunming",
      "lat": 24.880095,
      "lng": 102.832893
    },
    {
      "name": "Ulaanbaatar",
      "lat": 47.886398,
      "lng": 106.905746
    },
    {
      "name": "Athens",
      "lat": 37.98381,
      "lng": 23.727539
    },
    {
      "name": "Budapest",
      "lat": 47.497913,
      "lng": 19.040236
    },
    {
      "name": "Munich",
      "lat": 48.135124,
      "lng": 11.581981
    },
    {
      "name": "Seattle",
      "lat": 47.6114341,
      "lng": -122.3707998
    }
  ],
  "planned": [
    {
      "name": "San Francisco",
      "lat": 37.774929,
      "lng": -122.419418
    }
  ]
}